[
  {
    "name": "よりまし堂/Yorimashido ",
    "pref": 13,
    "geo": {"lat": 35.65418866, "lon": 139.3927466},
    "link": "https://www.instagram.com/yorimashi_minnanoibasyo/p/DP8MUrDkYPG/",
    "afz": 1
  },
  {
    "name": "MAP Cafe (Minority Art Project Cafe)",
    "pref": 27,
    "geo": {"lat": 34.50376975, "lon": 135.6026758},
    "link": "https://www.instagram.com/mapcafe1/",
    "afz": 1
  },
  {
    "name": "WAKAYAMA  RANKL",
    "pref": 30,
    "geo": {"lat": 34.19867247, "lon": 135.3550815}
  },
  {
    "name": "毎日食堂/Mainichi Shokudo",
    "pref": 28,
    "geo": {"lat": 34.3359659, "lon": 134.7459444},
    "link": "https://www.instagram.com/mainichi_shokudo/p/DPqQpZvE-Nh/",
    "afz": 1
  },
  {
    "name": "SUB STORE",
    "pref": 13,
    "geo": {"lat": 35.70540964, "lon": 139.6484812},
    "link": "https://substore.jimdofree.com/",
    "afz": 1
  },
  {
    "name": "キノコヤ/KINOKOYA",
    "pref": 13,
    "geo": {"lat": 35.64798314, "lon": 139.4471969},
    "link": "https://www.instagram.com/kinokoya96/",
    "afz": 1
  },
  {
    "name": "憲法いかそう茨木市民の会",
    "pref": 27,
    "geo": {"lat": 34.81886961, "lon": 135.5667318},
    "link": "https://ikasouibaraki.jugem.jp/",
    "afz": 1
  },
  {
    "name": "ZENKO京都",
    "pref": 26,
    "geo": {"lat": 34.93747435, "lon": 135.7667783},
    "link": "https://zenko-peace.com/archives/23222",
    "afz": 1
  },
  {
    "name": "Palestine Film Network Shiga",
    "pref": 25,
    "geo": {"lat": 35.01249444, "lon": 135.8634937},
    "link": "https://nonukesiga.exblog.jp/30774907/"
  },
  {
    "name": "船出屋 Funadeya/想考舎 Sokosha",
    "pref": 40,
    "geo": {"lat": 33.72262387, "lon": 130.4572638},
    "link": "https://www.instagram.com/funadeya/p/DPzpm4ik1b8/"
  },
  {
    "name": "東北大学国際文化研究科/パレスチナと仙台を結ぶ会",
    "pref": 4,
    "geo": {"lat": 38.25939315, "lon": 140.8523817},
    "link": "https://protestinsendai.wordpress.com/",
    "afz": 1
  },
  {
    "name": "ZENKO関西/LAG Center",
    "pref": 27,
    "geo": {"lat": 34.70402457, "lon": 135.5384096},
    "link": "https://zenko-peace.com/archives/23222",
    "afz": 1
  },
  {
    "name": "エマど&リユースショップえまうす/Reuse shop emmaus &Emmaus donut",
    "pref": 27,
    "geo": {"lat": 34.64836232, "lon": 135.4835577},
    "link": "https://www.instagram.com/hahaha_y25/p/DPsoHP3DxC-/",
    "afz": 1
  },
  {
    "name": "ZENKO広島 /AsterPlaza",
    "pref": 34,
    "geo": {"lat": 34.38798636, "lon": 132.4480514},
    "link": "https://zenko-peace.com/archives/23162",
    "afz": 1
  },
  {
    "name": "アートコミュニティスペース KAIKA",
    "pref": 26,
    "geo": {"lat": 35.00059651, "lon": 135.7565402},
    "link": "https://x.com/acs_kaika"
  },
  {
    "name": "JAALA美術家会議",
    "pref": 13,
    "geo": {"lat": 35.61229834, "lon": 139.3795951},
    "link": "https://jaala2015.jimdofree.com/",
    "afz": 1
  },
  {
    "name": "シネコヤ/ Cinekoya",
    "pref": 14,
    "geo": {"lat": 35.32195774, "lon": 139.4703262},
    "link": "https://cinekoya.com/"
  },
  {
    "name": "明日の一宮を創る会〈プライベート上映のみ〉",
    "pref": 23,
    "geo": {"lat": 35.33548943, "lon": 136.758035038865}
  },
  {
    "name": "パレスチガ/ Palestine+chigasaki",
    "pref": 14,
    "geo": {"lat": 35.33268907, "lon": 139.4054698},
    "link": "https://www.shonan-sh.jp/events/palestine-cinema/"
  },
  {
    "name": "suika house〈プライベート上映のみ〉",
    "pref": 28,
    "geo": {"lat": 34.686752266613496, "lon": 135.17303010179873}
  },
  {
    "name": "高知からパレスチナ・沖縄連帯実行委員会/ Kochi peace action for Palestine & Okinawa",
    "pref": 39,
    "geo": {"lat": 33.5552866, "lon": 133.5291908},
    "link": "https://www.instagram.com/kochi_peace4p/p/DP5SkIegYzv/",
    "afz": 1
  },
  {
    "name": "NPO つむぎの家/Tsumuginoie",
    "pref": 28,
    "geo": {"lat": 34.73561913, "lon": 135.3398901},
    "afz": 1
  },
  {
    "name": "平和と福祉のまち西宮をつくる会",
    "pref": 28,
    "geo": {"lat": 34.73520583, "lon": 135.3441239},
    "link": "https://heiwafukushi.blog.fc2.com/blog-entry-96.html",
    "afz": 1
  },
  {
    "name": "フォトジャーナリズム展三重/ Photojournalism Exhibition Mie",
    "pref": 24,
    "geo": {"lat": 34.71900055, "lon": 136.5116967},
    "link": "https://www.facebook.com/photojurnalism.exh.mie/?locale=ja_JP",
    "afz": 1
  },
  {
    "name": "大船はまかま寄席 / Ofuna Hamakama Yose",
    "pref": 14,
    "geo": {"lat": 35.35217839, "lon": 139.531889883045},
    "link": "https://www.instagram.com/nao_hamakama/p/DPwBDZIE69W/"
  },
  {
    "name": "The Watermelon and Keffiyeh Association for Palestine",
    "pref": 28,
    "geo": {"lat": 34.82671311, "lon": 135.4130726},
    "link": "https://www.instagram.com/the_velvet_house/p/DPfk5X-kl-D/"
  },
  {
    "name": "平野AFZピースネット/平野バプテスト教会",
    "pref": 27,
    "geo": {"lat": 34.62229781, "lon": 135.562138},
    "afz": 1
  },
  {
    "name": "ピースネット平野/ Peace net Hirano",
    "pref": 27,
    "geo": {"lat": 34.63012685, "lon": 135.5685551},
    "afz": 1
  },
  {
    "name": "ZENKO団結祭/ Small tent on Danketsu matsuri festival ZENKO",
    "pref": 13,
    "geo": {"lat": 35.67703181, "lon": 139.8086847},
    "link": "https://zenko-peace.com/",
    "afz": 1
  },
  {
    "name": "Probos/ 堺市立東百舌鳥公民館",
    "pref": 27,
    "geo": {"lat": 34.53726894, "lon": 135.5091774}
  },
  {
    "name": "フェアコープ関西",
    "pref": 27,
    "geo": {"lat": 34.69826656, "lon": 135.5378694},
    "afz": 1
  },
  {
    "name": "よつ葉コミュニティハウス西真上／パレスチナの子どもを守る会",
    "pref": 27,
    "geo": {"lat": 34.85586335, "lon": 135.6059657},
    "link": "https://www.instagram.com/save_childofpalestine/p/DQJn72JknPH/"
  },
  {
    "name": "まなぽーと成増/ ひろがれ！ピースミュージアムいたばし",
    "pref": 13,
    "geo": {"lat": 35.7747414, "lon": 139.6337971},
    "link": "https://www.facebook.com/PeaceMuseumItabashi.Campaign/",
    "afz": 1
  },
  {
    "name": "モモの家(うゆらら映画部)/ Momo's House (Uyurara Film Club)",
    "pref": 27,
    "geo": {"lat": 34.76254588, "lon": 135.5148098},
    "link": "https://www.momo-family.org/"
  },
  {
    "name": "さわさわ/ Sawa Sawa ",
    "pref": 13,
    "geo": {"lat": 35.72562317, "lon": 139.7782943},
    "link": "https://www.instagram.com/sawasawahouse/p/DQMZH0Gk1p5/",
    "afz": 1
  },
  {
    "name": "ポルトリブレ デ・ノーヴォ/ PôRto LibRE  de novo",
    "pref": 13,
    "geo": {"lat": 35.70141224, "lon": 139.6453679},
    "link": "http://portolibre.com/",
    "afz": 1
  },
  {
    "name": "Friends of Palestine Kobe",
    "pref": 28,
    "geo": {"lat": 34.69855669, "lon": 135.1892039},
    "link": "https://www.instagram.com/friends_of_palestine_kobe/p/DP0dVhaj1Re/",
    "afz": 1
  },
  {
    "name": "Cinema club for Peace",
    "pref": 25,
    "geo": {"lat": 35.03236431, "lon": 135.8329836}
  },
  {
    "name": "Bagel cafe nico.",
    "pref": 14,
    "geo": {"lat": 35.27663125, "lon": 139.6708806},
    "link": "https://www.instagram.com/bagelcafenico/",
    "afz": 1
  },
  {
    "name": "おばさんち/ Obasanch",
    "pref": 14,
    "geo": {"lat": 35.33393453, "lon": 139.4342791},
    "link": "https://www.instagram.com/obasanch",
    "afz": 1
  },
  {
    "name": "農家民宿みつやまの里/ Farm & Stay  MITSUYAMANOSATO",
    "pref": 28,
    "geo": {"lat": 35.01175519, "lon": 134.3131563},
    "link": "https://www.facebook.com/mitsuyamanosato/"
  },
  {
    "name": "スペース サバニ/ space sabani",
    "pref": 47,
    "geo": {"lat": 26.21728151, "lon": 127.6998517},
    "link": "https://www.instagram.com/sabani_space/p/DQJV8CHE32A/"
  },
  {
    "name": "ウトロ平和祈念館/ Utoro Peace Memorial Museum",
    "pref": 26,
    "geo": {"lat": 34.88165938, "lon": 135.7740557},
    "link": "https://www.utoro.jp/"
  },
  {
    "name": "tokushima.palestine",
    "pref": 36,
    "geo": {"lat": 34.06524278, "lon": 134.4776344},
    "link": "https://www.instagram.com/tokushima.palestine/p/DQM4Dt5ErUe",
    "afz": 1
  },
  {
    "name": "もっきんバー/ Mokkin bar",
    "pref": 13,
    "geo": {"lat": 35.65913193, "lon": 139.3135778},
    "link": "https://www.facebook.com/mokkinbar/"
  },
  {
    "name": "堺町画廊/ Sakaimachi gallery",
    "pref": 26,
    "geo": {"lat": 35.0104635, "lon": 135.7633507},
    "link": "https://sakaimachi-garow.com/blog/",
    "afz": 1
  },
  {
    "name": "寝屋川平和と市民自治の会",
    "pref": 27,
    "geo": {"lat": 34.7633375, "lon": 135.621111},
    "link": "https://zenko-peace.com/archives/23107",
    "afz": 1
  },
  {
    "name": "Iwaki for Palestine",
    "pref": 7,
    "geo": {"lat": 37.0066375, "lon": 140.8487713},
    "link": "https://www.instagram.com/iwaki_for_palestine/p/DP2Rqfek7H9"
  },
  {
    "name": "アミタホールディングス株式会社有志（京都）",
    "pref": 26,
    "geo": {"lat": 35.01267532, "lon": 135.7602995}
  },
  {
    "name": "アミタホールディングス株式会社有志（東京）",
    "pref": 13,
    "geo": {"lat": 35.69902511, "lon": 139.765221}
  },
  {
    "name": "東京聖テモテ教会 / St. Timothy's Church. Tokyo",
    "pref": 13,
    "geo": {"lat": 35.71930721, "lon": 139.7598818},
    "link": "https://www.nskk.org/tokyo/church/timothy/"
  },
  {
    "name": "京都YWCA / Kyoto YWCA",
    "pref": 26,
    "geo": {"lat": 35.02187582, "lon": 135.7582239},
    "link": "https://kyoto.ywca.or.jp/"
  },
  {
    "name": "GOLDEN STRIKE",
    "pref": 27,
    "geo": {"lat": 34.72277893, "lon": 135.4750125},
    "link": "https://www.instagram.com/13goldenstrike/",
    "afz": 1
  },
  {
    "name": "サリーコネクション by 北関東チーム / Sari Connection Kitakanto",
    "pref": 10,
    "geo": {"lat": 36.29469638, "lon": 139.3785231},
    "link": "https://www.instagram.com/sari_connection__kitakanto/p/DPtdMZ1j2OW"
  },
  {
    "name": "ソムードの集い（京都） / Somoud Japan, Kyoto",
    "pref": 26,
    "geo": {"lat": 35.04786488, "lon": 135.776644},
    "link": "https://note.com/somoudjapan",
    "afz": 1
  },
  {
    "name": "徳島からパレスチナを想う / Tokushima kara Palestine wo omou -murabito-",
    "pref": 36,
    "geo": {"lat": 33.97630746, "lon": 134.4300025},
    "link": "https://www.instagram.com/tokushima.palestine/p/DQM4Dt5ErUe",
    "afz": 1
  },
  {
    "name": "Bar凡",
    "pref": 23,
    "geo": {"lat": 34.98853377, "lon": 136.997764},
    "link": "https://www.instagram.com/barbon1959/p/DQBradOE7Nh"
  },
  {
    "name": "カフェきたの/Cafe Kitano",
    "pref": 30,
    "geo": {"lat": 34.16843427, "lon": 135.4085206},
    "link": "https://www.instagram.com/cafe_kitano_kiminotakara/"
  },
  {
    "name": "しろる/ SHIRORU",
    "pref": 26,
    "geo": {"lat": 35.02644637, "lon": 135.7814011},
    "link": "https://www.instagram.com/shiroru____/p/DQDuiWiAKLD/"
  },
  {
    "name": "中津川アクション/Nakatsugawa Action",
    "pref": 21,
    "geo": {"lat": 35.26551539, "lon": 137.4394107},
    "link": "https://www.instagram.com/nakatsugawa.action/",
    "afz": 1
  },
  {
    "name": "明治大学 文学部 中江桂子研究室",
    "pref": 13,
    "geo": {"lat": 35.6973981, "lon": 139.7614543},
    "link": "https://www.meiji.ac.jp/bungaku/info/2025/qfki0t000009p05q.html"
  },
  {
    "name": "脱衣所 / Datsuijo",
    "pref": 13,
    "geo": {"lat": 35.7220822, "lon": 139.770483},
    "link": "https://www.instagram.com/datsuijo/p/DQHTxWyAZSC/"
  },
  {
    "name": "NAMNAM Space",
    "pref": 13,
    "geo": {"lat": 35.70674622831693, "lon": 139.64632521047002},
    "link": "https://www.instagram.com/namnam_space/p/DQGH0WTklnp/",
    "afz": 1
  },
  {
    "name": "平和で豊かな枚方を市民みんなでつくる会",
    "pref": 27,
    "geo": {"lat": 34.81924251556334, "lon": 135.64826611927157},
    "link": "https://hiratkatasiminnokai.jimdofree.com/",
    "afz": 1
  },
  {
    "name": "ART OHARA",
    "pref": 26,
    "geo": {"lat": 35.11355, "lon": 135.823645}
  },
  {
    "name": "立命館大学パレスチナ連帯アクション",
    "pref": 26,
    "geo": {"lat": 35.0336873, "lon": 135.7247865},
    "link": "https://www.instagram.com/rs_palestine/p/DQWlFVUD9G9/"
  },
  {
    "name": "ソムードの集い（東京） / Somoud Japan, Tokyo ＜プライベート上映のみ＞",
    "pref": 13,
    "geo": {"lat": 35.68974550663059, "lon": 139.69122817567083},
    "link": "https://note.com/somoudjapan",
    "afz": 1
  }
]
